[
  {
    "name": "Coast Dental",
    "address": "145 Palm Bay Rd NE Ste 104, West Melbourne",
    "city": "FL 32904",
    "state": "US",
    "zip": "",
    "phone": "(321) 728-8053",
    "website": "https://www.coastdental.com/dentist-office/west-melbourne-fl-32904?utm_source=gmb&utm_medium=organic",
    "google_maps_url": "https://maps.google.com/?cid=149094218904143149&g_mp=CiVnb29nbGUubWFwcy5wbGFjZXMudjEuUGxhY2VzLkdldFBsYWNlEAIYBCAA",
    "google_rating": 3.9,
    "google_review_count": 509,
    "place_id": "ChIJ4RJUUK4N3ogRLYXY82awEQI",
    "latitude": 28.037716999999997,
    "longitude": -80.6692781,
    "hours": [
      "Monday: 8:00 AM – 5:00 PM",
      "Tuesday: 8:00 AM – 5:00 PM",
      "Wednesday: 8:00 AM – 5:00 PM",
      "Thursday: 8:00 AM – 5:00 PM",
      "Friday: 8:00 AM – 5:00 PM",
      "Saturday: Closed",
      "Sunday: Closed"
    ],
    "source": "google_places"
  },
  {
    "name": "Dental Care of West Melbourne",
    "address": "715 Palm Bay Rd NE Unit 107, West Melbourne",
    "city": "FL 32904",
    "state": "US",
    "zip": "",
    "phone": "(321) 410-8622",
    "website": "http://dentalcareofwestmelbourne.com/?utm_source=gbp&utm_medium=organic&utm_campaign=yext_listing",
    "google_maps_url": "https://maps.google.com/?cid=17783223130450008449&g_mp=CiVnb29nbGUubWFwcy5wbGFjZXMudjEuUGxhY2VzLkdldFBsYWNlEAIYBCAA",
    "google_rating": 4.7,
    "google_review_count": 1080,
    "place_id": "ChIJFaf9d6IN3ogRgZn7szezyvY",
    "latitude": 28.035867999999997,
    "longitude": -80.65134599999999,
    "hours": [
      "Monday: 9:00 AM – 5:00 PM",
      "Tuesday: 8:00 AM – 5:00 PM",
      "Wednesday: 8:00 AM – 5:00 PM",
      "Thursday: 8:00 AM – 5:00 PM",
      "Friday: 7:00 AM – 3:30 PM",
      "Saturday: Closed",
      "Sunday: Closed"
    ],
    "source": "google_places"
  },
  {
    "name": "Babcock Dental Center LLC",
    "address": "4070 S Babcock St Suite 104, Melbourne",
    "city": "FL 32901",
    "state": "US",
    "zip": "",
    "phone": "(321) 984-1991",
    "website": "http://www.babcockdentalcenterpalmbay.com/",
    "google_maps_url": "https://maps.google.com/?cid=7646141312057083928&g_mp=CiVnb29nbGUubWFwcy5wbGFjZXMudjEuUGxhY2VzLkdldFBsYWNlEAIYBCAA",
    "google_rating": 4.7,
    "google_review_count": 351,
    "place_id": "ChIJKQiFIWUS3ogRGAiaJwONHGo",
    "latitude": 28.0475033,
    "longitude": -80.6223476,
    "hours": [
      "Monday: 8:00 AM – 5:00 PM",
      "Tuesday: 8:00 AM – 5:00 PM",
      "Wednesday: 8:00 AM – 5:00 PM",
      "Thursday: 8:00 AM – 5:00 PM",
      "Friday: 8:00 AM – 5:00 PM",
      "Saturday: Closed",
      "Sunday: Closed"
    ],
    "source": "google_places"
  },
  {
    "name": "Great Expressions Dental Centers - Melbourne",
    "address": "205 Palm Bay Rd NE Ste 159, Melbourne",
    "city": "FL 32904",
    "state": "US",
    "zip": "",
    "phone": "(321) 218-4671",
    "website": "https://www.greatexpressions.com/dental-offices/dentist-in-melbourne-florida-palm-bay-rd/",
    "google_maps_url": "https://maps.google.com/?cid=6992569681122640181&g_mp=CiVnb29nbGUubWFwcy5wbGFjZXMudjEuUGxhY2VzLkdldFBsYWNlEAIYBCAA",
    "google_rating": 4.4,
    "google_review_count": 767,
    "place_id": "ChIJayULcgwO3ogRNUF7phOZCmE",
    "latitude": 28.038650699999998,
    "longitude": -80.664197,
    "hours": [
      "Monday: 8:00 AM – 5:00 PM",
      "Tuesday: 8:00 AM – 5:00 PM",
      "Wednesday: 8:00 AM – 5:00 PM",
      "Thursday: 8:00 AM – 5:00 PM",
      "Friday: 8:00 AM – 5:00 PM",
      "Saturday: Closed",
      "Sunday: Closed"
    ],
    "source": "google_places"
  },
  {
    "name": "Bayside Dental",
    "address": "3440 Bayside Lakes Blvd SE, Palm Bay",
    "city": "FL 32909",
    "state": "US",
    "zip": "",
    "phone": "(321) 726-8884",
    "website": "https://baysidedentalcenter.com/",
    "google_maps_url": "https://maps.google.com/?cid=14931412515890372390&g_mp=CiVnb29nbGUubWFwcy5wbGFjZXMudjEuUGxhY2VzLkdldFBsYWNlEAIYBCAA",
    "google_rating": 4.4,
    "google_review_count": 222,
    "place_id": "ChIJqcB78exy3ogRJp93vJIIN88",
    "latitude": 27.9519175,
    "longitude": -80.65712049999999,
    "hours": [
      "Monday: 8:00 AM – 5:00 PM",
      "Tuesday: 8:00 AM – 5:00 PM",
      "Wednesday: 8:00 AM – 5:00 PM",
      "Thursday: 8:00 AM – 5:00 PM",
      "Friday: 8:00 AM – 5:00 PM",
      "Saturday: Closed",
      "Sunday: Closed"
    ],
    "source": "google_places"
  },
  {
    "name": "Dr. Syed Quadri, DMD | Palm Bay Dentist",
    "address": "2090 Palm Bay Rd NE, Palm Bay",
    "city": "FL 32905",
    "state": "US",
    "zip": "",
    "phone": "(321) 984-2255",
    "website": "https://drquadri.com/",
    "google_maps_url": "https://maps.google.com/?cid=12225014472231200144&g_mp=CiVnb29nbGUubWFwcy5wbGFjZXMudjEuUGxhY2VzLkdldFBsYWNlEAIYBCAA",
    "google_rating": 4.7,
    "google_review_count": 776,
    "place_id": "ChIJuza452cS3ogRkKVZP-T5p6k",
    "latitude": 28.034523399999998,
    "longitude": -80.611909,
    "hours": [
      "Monday: 8:00 AM – 5:30 PM",
      "Tuesday: 8:00 AM – 5:30 PM",
      "Wednesday: 8:00 AM – 5:30 PM",
      "Thursday: 8:00 AM – 5:30 PM",
      "Friday: 8:00 AM – 5:30 PM",
      "Saturday: Closed",
      "Sunday: Closed"
    ],
    "source": "google_places"
  },
  {
    "name": "Palm Bay Dental Center",
    "address": "1764 Palm Bay Rd NE, Palm Bay",
    "city": "FL 32905",
    "state": "US",
    "zip": "",
    "phone": "(321) 725-5512",
    "website": "https://palmbaydental.com/contact-us?y_source=1_MTQwNDUxNzMtNzE1LWxvY2F0aW9uLndlYnNpdGU%3D",
    "google_maps_url": "https://maps.google.com/?cid=17542787159033871359&g_mp=CiVnb29nbGUubWFwcy5wbGFjZXMudjEuUGxhY2VzLkdldFBsYWNlEAIYBCAA",
    "google_rating": 4.6,
    "google_review_count": 594,
    "place_id": "ChIJo46W9WQS3ogR_3t_uPl_dPM",
    "latitude": 28.0339557,
    "longitude": -80.6190247,
    "hours": [
      "Monday: 8:00 AM – 5:00 PM",
      "Tuesday: 8:00 AM – 5:00 PM",
      "Wednesday: 8:00 AM – 5:00 PM",
      "Thursday: 8:00 AM – 5:00 PM",
      "Friday: 8:00 AM – 5:00 PM",
      "Saturday: Closed",
      "Sunday: Closed"
    ],
    "source": "google_places"
  },
  {
    "name": "Smile Today Dentistry",
    "address": "3420 Bayside Lakes Blvd SE Ste 1, Palm Bay",
    "city": "FL 32909",
    "state": "US",
    "zip": "",
    "phone": "(321) 515-4656",
    "website": "http://smiletodaydentistry.com/?utm_source=gbp&utm_medium=organic&utm_campaign=yext_listing",
    "google_maps_url": "https://maps.google.com/?cid=17195987708084068965&g_mp=CiVnb29nbGUubWFwcy5wbGFjZXMudjEuUGxhY2VzLkdldFBsYWNlEAIYBCAA",
    "google_rating": 4.7,
    "google_review_count": 1261,
    "place_id": "ChIJY3O2luxy3ogRZaJVVrZrpO4",
    "latitude": 27.951259999999998,
    "longitude": -80.656587,
    "hours": [
      "Monday: 9:00 AM – 6:00 PM",
      "Tuesday: 8:00 AM – 5:00 PM",
      "Wednesday: 8:00 AM – 5:00 PM",
      "Thursday: 8:00 AM – 5:00 PM",
      "Friday: 7:00 AM – 4:00 PM",
      "Saturday: Closed",
      "Sunday: Closed"
    ],
    "source": "google_places"
  },
  {
    "name": "Dental Partners - Melbourne",
    "address": "2419 S Babcock St, Melbourne",
    "city": "FL 32901",
    "state": "US",
    "zip": "",
    "phone": "(321) 956-7700",
    "website": "https://melbournedentalpartners.com/",
    "google_maps_url": "https://maps.google.com/?cid=13803953223102147730&g_mp=CiVnb29nbGUubWFwcy5wbGFjZXMudjEuUGxhY2VzLkdldFBsYWNlEAIYBCAA",
    "google_rating": 4.5,
    "google_review_count": 482,
    "place_id": "ChIJG57l_PcR3ogRkqwc51F-kb8",
    "latitude": 28.071802599999998,
    "longitude": -80.6208386,
    "hours": [
      "Monday: 8:00 AM – 5:00 PM",
      "Tuesday: 8:00 AM – 5:00 PM",
      "Wednesday: 8:00 AM – 5:00 PM",
      "Thursday: 8:00 AM – 5:00 PM",
      "Friday: 8:00 AM – 1:00 PM",
      "Saturday: Closed",
      "Sunday: Closed"
    ],
    "source": "google_places"
  },
  {
    "name": "Capeside Dental",
    "address": "4545 Durham Dr #101, West Melbourne",
    "city": "FL 32904",
    "state": "US",
    "zip": "",
    "phone": "(321) 499-2995",
    "website": "https://www.capesidefamilydentistry.com/?utm_source=GMB&utm_medium=organic&utm_campaign=DevOptimization&utm_content=Website",
    "google_maps_url": "https://maps.google.com/?cid=3055043416264250478&g_mp=CiVnb29nbGUubWFwcy5wbGFjZXMudjEuUGxhY2VzLkdldFBsYWNlEAIYBCAA",
    "google_rating": 4.3,
    "google_review_count": 189,
    "place_id": "ChIJcXtEaKIN3ogRbpTT_8yxZSo",
    "latitude": 28.0358979,
    "longitude": -80.6446636,
    "hours": [
      "Monday: 8:00 AM – 5:00 PM",
      "Tuesday: 8:00 AM – 7:00 PM",
      "Wednesday: 8:00 AM – 5:00 PM",
      "Thursday: 8:00 AM – 7:00 PM",
      "Friday: 8:00 AM – 5:00 PM",
      "Saturday: 10:00 AM – 2:00 PM",
      "Sunday: Closed"
    ],
    "source": "google_places"
  },
  {
    "name": "River Breeze Dental Care",
    "address": "5201 Babcock St NE # 4, Palm Bay",
    "city": "FL 32905",
    "state": "US",
    "zip": "",
    "phone": "(321) 342-3368",
    "website": "http://riverbreezedentalcare.com/?utm_source=gbp&utm_medium=organic&utm_campaign=yext_listing",
    "google_maps_url": "https://maps.google.com/?cid=17670827916267599115&g_mp=CiVnb29nbGUubWFwcy5wbGFjZXMudjEuUGxhY2VzLkdldFBsYWNlEAIYBCAA",
    "google_rating": 4.6,
    "google_review_count": 710,
    "place_id": "ChIJb3teoIgS3ogRC7UvpF1kO_U",
    "latitude": 28.020643,
    "longitude": -80.621667,
    "hours": [
      "Monday: 8:00 AM – 5:00 PM",
      "Tuesday: 9:00 AM – 5:00 PM",
      "Wednesday: 8:00 AM – 5:00 PM",
      "Thursday: 8:00 AM – 5:00 PM",
      "Friday: 8:00 AM – 5:00 PM",
      "Saturday: Closed",
      "Sunday: Closed"
    ],
    "source": "google_places"
  },
  {
    "name": "Cape Side Dental PA",
    "address": "3265 Bayside Lakes Blvd SE, Palm Bay",
    "city": "FL 32909",
    "state": "US",
    "zip": "",
    "phone": "(321) 727-0011",
    "website": "http://capesidedental.org/",
    "google_maps_url": "https://maps.google.com/?cid=17290112691686192948&g_mp=CiVnb29nbGUubWFwcy5wbGFjZXMudjEuUGxhY2VzLkdldFBsYWNlEAIYBCAA",
    "google_rating": 4.2,
    "google_review_count": 69,
    "place_id": "ChIJ0Uiglexy3ogRNLdt2uLR8u8",
    "latitude": 27.9530587,
    "longitude": -80.65343519999999,
    "hours": [
      "Monday: 8:00 AM – 6:00 PM",
      "Tuesday: 8:00 AM – 5:00 PM",
      "Wednesday: 8:00 AM – 6:00 PM",
      "Thursday: 8:00 AM – 5:00 PM",
      "Friday: 8:00 AM – 5:00 PM",
      "Saturday: Closed",
      "Sunday: Closed"
    ],
    "source": "google_places"
  },
  {
    "name": "New Image Dentistry",
    "address": "1890 Palm Bay Rd NE Ste 2, Palm Bay",
    "city": "FL 32905",
    "state": "US",
    "zip": "",
    "phone": "(321) 724-5100",
    "website": "https://newimagedentistry.net/palm-bay?y_source=1_MTQwNDUxNzUtNzE1LWxvY2F0aW9uLndlYnNpdGU%3D",
    "google_maps_url": "https://maps.google.com/?cid=14025709786155190579&g_mp=CiVnb29nbGUubWFwcy5wbGFjZXMudjEuUGxhY2VzLkdldFBsYWNlEAIYBCAA",
    "google_rating": 4.5,
    "google_review_count": 482,
    "place_id": "ChIJ8Q-72GUS3ogRMwmANr1UpcI",
    "latitude": 28.0345414,
    "longitude": -80.61610379999999,
    "hours": [
      "Monday: 8:00 AM – 2:00 PM",
      "Tuesday: 7:00 AM – 7:00 PM",
      "Wednesday: 7:00 AM – 5:00 PM",
      "Thursday: 7:00 AM – 7:00 PM",
      "Friday: 8:00 AM – 5:00 PM",
      "Saturday: Closed",
      "Sunday: Closed"
    ],
    "source": "google_places"
  },
  {
    "name": "New Image Dentistry",
    "address": "2235 W New Haven Ave, Melbourne",
    "city": "FL 32904",
    "state": "US",
    "zip": "",
    "phone": "(321) 956-5664",
    "website": "https://newimagedentistry.net/west-melbourne?y_source=1_MTQwNDUxNzctNzE1LWxvY2F0aW9uLndlYnNpdGU%3D",
    "google_maps_url": "https://maps.google.com/?cid=4361932258950521826&g_mp=CiVnb29nbGUubWFwcy5wbGFjZXMudjEuUGxhY2VzLkdldFBsYWNlEAIYBCAA",
    "google_rating": 4.8,
    "google_review_count": 586,
    "place_id": "ChIJfSk0QQsO3ogR4iMQbUeyiDw",
    "latitude": 28.0776893,
    "longitude": -80.6587024,
    "hours": [
      "Monday: 8:00 AM – 5:00 PM",
      "Tuesday: 8:00 AM – 5:00 PM",
      "Wednesday: 8:00 AM – 5:00 PM",
      "Thursday: 8:00 AM – 5:00 PM",
      "Friday: 8:00 AM – 5:00 PM",
      "Saturday: Closed",
      "Sunday: Closed"
    ],
    "source": "google_places"
  },
  {
    "name": "New Image Dentistry",
    "address": "3590 Bayside Lakes Blvd SE, Palm Bay",
    "city": "FL 32909",
    "state": "US",
    "zip": "",
    "phone": "(321) 984-0044",
    "website": "https://newimagedentistry.net/bayside-lakes?y_source=1_MTQwNDUxNjktNzE1LWxvY2F0aW9uLndlYnNpdGU%3D",
    "google_maps_url": "https://maps.google.com/?cid=15737034330015547512&g_mp=CiVnb29nbGUubWFwcy5wbGFjZXMudjEuUGxhY2VzLkdldFBsYWNlEAIYBCAA",
    "google_rating": 4.7,
    "google_review_count": 755,
    "place_id": "ChIJ_42r1-1y3ogReEC0QlgtZdo",
    "latitude": 27.948902699999998,
    "longitude": -80.66012959999999,
    "hours": [
      "Monday: 7:00 AM – 7:00 PM",
      "Tuesday: 7:00 AM – 7:00 PM",
      "Wednesday: 7:00 AM – 7:00 PM",
      "Thursday: 7:00 AM – 7:00 PM",
      "Friday: 7:00 AM – 7:00 PM",
      "Saturday: 7:00 AM – 7:00 PM",
      "Sunday: Closed"
    ],
    "source": "google_places"
  },
  {
    "name": "Artistic Touch Dentistry",
    "address": "1061 S Wickham Rd, West Melbourne",
    "city": "FL 32904",
    "state": "US",
    "zip": "",
    "phone": "(321) 724-1400",
    "website": "https://www.artistictouchdentistry.com/",
    "google_maps_url": "https://maps.google.com/?cid=1896972982650541094&g_mp=CiVnb29nbGUubWFwcy5wbGFjZXMudjEuUGxhY2VzLkdldFBsYWNlEAIYBCAA",
    "google_rating": 5,
    "google_review_count": 515,
    "place_id": "ChIJz2r9dWMO3ogRJhRmi-BmUxo",
    "latitude": 28.089805499999997,
    "longitude": -80.6722418,
    "hours": [
      "Monday: 7:30 AM – 2:30 PM",
      "Tuesday: 7:30 AM – 4:00 PM",
      "Wednesday: 7:30 AM – 4:00 PM",
      "Thursday: 7:30 AM – 2:30 PM",
      "Friday: 7:30 AM – 2:30 PM",
      "Saturday: Closed",
      "Sunday: Closed"
    ],
    "source": "google_places"
  },
  {
    "name": "Dentists of Palm Bay",
    "address": "195 Malabar Rd Suite A-2, Palm Bay",
    "city": "FL 32907",
    "state": "US",
    "zip": "",
    "phone": "(321) 541-4085",
    "website": "https://dentistsofpalmbay.com/",
    "google_maps_url": "https://maps.google.com/?cid=9768984233081406543&g_mp=CiVnb29nbGUubWFwcy5wbGFjZXMudjEuUGxhY2VzLkdldFBsYWNlEAIYBCAA",
    "google_rating": 4.8,
    "google_review_count": 116,
    "place_id": "ChIJCbSGDc8N3ogRT4Q11WZnkoc",
    "latitude": 27.999492999999998,
    "longitude": -80.67542209999999,
    "hours": [
      "Monday: 9:00 AM – 5:00 PM",
      "Tuesday: 9:00 AM – 5:00 PM",
      "Wednesday: 9:00 AM – 5:00 PM",
      "Thursday: 9:00 AM – 5:00 PM",
      "Friday: 8:00 AM – 2:00 PM",
      "Saturday: Closed",
      "Sunday: Closed"
    ],
    "source": "google_places"
  },
  {
    "name": "Smile Care Dentistry",
    "address": "190 Malabar Rd SW ste 104, Palm Bay",
    "city": "FL 32907",
    "state": "US",
    "zip": "",
    "phone": "(321) 342-2760",
    "website": "https://www.palmbaysmilecare.com/",
    "google_maps_url": "https://maps.google.com/?cid=7349739762437871670&g_mp=CiVnb29nbGUubWFwcy5wbGFjZXMudjEuUGxhY2VzLkdldFBsYWNlEAIYBCAA",
    "google_rating": 5,
    "google_review_count": 312,
    "place_id": "ChIJb1h_3v8N3ogRNlisk1-F_2U",
    "latitude": 27.9967831,
    "longitude": -80.67507289999999,
    "hours": [
      "Monday: 8:00 AM – 5:00 PM",
      "Tuesday: 8:00 AM – 5:00 PM",
      "Wednesday: 8:00 AM – 5:00 PM",
      "Thursday: 8:00 AM – 5:00 PM",
      "Friday: Closed",
      "Saturday: Closed",
      "Sunday: Closed"
    ],
    "source": "google_places"
  },
  {
    "name": "Ultimate Smile Design",
    "address": "730 Emerson Dr NE, Palm Bay",
    "city": "FL 32907",
    "state": "US",
    "zip": "",
    "phone": "(321) 984-7878",
    "website": "https://www.ultimatesmiledesign.net/",
    "google_maps_url": "https://maps.google.com/?cid=3323283212840497633&g_mp=CiVnb29nbGUubWFwcy5wbGFjZXMudjEuUGxhY2VzLkdldFBsYWNlEAIYBCAA",
    "google_rating": 4.9,
    "google_review_count": 255,
    "place_id": "ChIJg_s1xg0N3ogR4XFgfXmsHi4",
    "latitude": 28.018301,
    "longitude": -80.6592156,
    "hours": [
      "Monday: 7:30 AM – 4:30 PM",
      "Tuesday: 7:30 AM – 4:30 PM",
      "Wednesday: 7:30 AM – 4:30 PM",
      "Thursday: 7:30 AM – 4:30 PM",
      "Friday: 7:30 AM – 4:30 PM",
      "Saturday: Closed",
      "Sunday: Closed"
    ],
    "source": "google_places"
  },
  {
    "name": "Implant Dentistry of Florida",
    "address": "1801 W Hibiscus Blvd, Melbourne",
    "city": "FL 32901",
    "state": "US",
    "zip": "",
    "phone": "(321) 372-7700",
    "website": "https://drimplant.com/",
    "google_maps_url": "https://maps.google.com/?cid=10761097045403716193&g_mp=CiVnb29nbGUubWFwcy5wbGFjZXMudjEuUGxhY2VzLkdldFBsYWNlEAIYBCAA",
    "google_rating": 4.9,
    "google_review_count": 305,
    "place_id": "ChIJP7p8RLUP3ogRYUrLgL8YV5U",
    "latitude": 28.085021,
    "longitude": -80.6501585,
    "hours": [
      "Monday: 8:00 AM – 5:00 PM",
      "Tuesday: 8:00 AM – 5:00 PM",
      "Wednesday: 8:00 AM – 5:00 PM",
      "Thursday: 8:00 AM – 5:00 PM",
      "Friday: Closed",
      "Saturday: Closed",
      "Sunday: Closed"
    ],
    "source": "google_places"
  }
]